{
"type": "FeatureCollection",
"name": "commerce",
"crs": { "type": "name", "properties": { "name": "urn:ogc:def:crs:OGC:1.3:CRS84" } },
"features": [
{ "type": "Feature", "properties": { "element": "node", "id": 3978017927, "addr:city": "Cotonou", "name": "Super U Akpakpa", "shop": "supermarket", "brand": null, "name:fr": null, "description": null, "phone": null, "website": null, "building": null }, "geometry": { "type": "Point", "coordinates": [ 2.4651303, 6.3674559 ] } },
{ "type": "Feature", "properties": { "element": "node", "id": 4210075192, "addr:city": null, "name": "CAMIN", "shop": "car", "brand": null, "name:fr": null, "description": null, "phone": null, "website": null, "building": null }, "geometry": { "type": "Point", "coordinates": [ 2.470059, 6.3671643 ] } },
{ "type": "Feature", "properties": { "element": "node", "id": 4210096572, "addr:city": null, "name": "SANIPA", "shop": "laundry", "brand": null, "name:fr": null, "description": null, "phone": null, "website": null, "building": null }, "geometry": { "type": "Point", "coordinates": [ 2.4734399, 6.3675582 ] } },
{ "type": "Feature", "properties": { "element": "node", "id": 4210096573, "addr:city": null, "name": "TUNDE MOTORS", "shop": "car", "brand": "Volkswagen", "name:fr": null, "description": null, "phone": null, "website": null, "building": null }, "geometry": { "type": "Point", "coordinates": [ 2.4779286, 6.3686311 ] } },
{ "type": "Feature", "properties": { "element": "node", "id": 4215436436, "addr:city": null, "name": null, "shop": "hairdresser", "brand": null, "name:fr": null, "description": null, "phone": null, "website": null, "building": null }, "geometry": { "type": "Point", "coordinates": [ 2.4625421, 6.374153 ] } },
{ "type": "Feature", "properties": { "element": "node", "id": 4215438589, "addr:city": null, "name": null, "shop": "seafood", "brand": null, "name:fr": null, "description": null, "phone": null, "website": null, "building": null }, "geometry": { "type": "Point", "coordinates": [ 2.4663321, 6.3767606 ] } },
{ "type": "Feature", "properties": { "element": "node", "id": 4331486203, "addr:city": null, "name": "Pressing GBB", "shop": "dry_cleaning", "brand": null, "name:fr": null, "description": null, "phone": null, "website": null, "building": null }, "geometry": { "type": "Point", "coordinates": [ 2.4722053, 6.3675075 ] } },
{ "type": "Feature", "properties": { "element": "node", "id": 4723585296, "addr:city": null, "name": "Maison Sant'Anna", "shop": "beverages", "brand": null, "name:fr": "Maison Sant'Anna", "description": null, "phone": null, "website": null, "building": null }, "geometry": { "type": "Point", "coordinates": [ 2.4787708, 6.3669232 ] } },
{ "type": "Feature", "properties": { "element": "node", "id": 4723587998, "addr:city": null, "name": "Société AJO", "shop": "wine", "brand": null, "name:fr": "Société AJO", "description": null, "phone": null, "website": null, "building": null }, "geometry": { "type": "Point", "coordinates": [ 2.4725842, 6.3730455 ] } },
{ "type": "Feature", "properties": { "element": "node", "id": 4882005609, "addr:city": "Cotonou", "name": "Maya", "shop": "supermarket", "brand": null, "name:fr": null, "description": null, "phone": null, "website": null, "building": null }, "geometry": { "type": "Point", "coordinates": [ 2.4785387, 6.3671666 ] } },
{ "type": "Feature", "properties": { "element": "node", "id": 5208495133, "addr:city": null, "name": "Delta Motors", "shop": "car", "brand": null, "name:fr": null, "description": null, "phone": null, "website": null, "building": null }, "geometry": { "type": "Point", "coordinates": [ 2.4733759, 6.368236 ] } },
{ "type": "Feature", "properties": { "element": "node", "id": 5208523047, "addr:city": null, "name": "Africa Queen", "shop": "beauty", "brand": null, "name:fr": null, "description": null, "phone": null, "website": null, "building": null }, "geometry": { "type": "Point", "coordinates": [ 2.4788274, 6.3719889 ] } },
{ "type": "Feature", "properties": { "element": "node", "id": 5506166839, "addr:city": null, "name": "Océan fm", "shop": "radiotechnics", "brand": null, "name:fr": null, "description": "journal radio", "phone": "21338419", "website": "www.radio-oceanbj.com", "building": null }, "geometry": { "type": "Point", "coordinates": [ 2.4838391, 6.3700444 ] } },
{ "type": "Feature", "properties": { "element": "way", "id": 422219903, "addr:city": "Cotonou", "name": "Bon Pain", "shop": "bakery", "brand": null, "name:fr": null, "description": null, "phone": null, "website": null, "building": "yes" }, "geometry": { "type": "Polygon", "coordinates": [ [ [ 2.4781332, 6.3673086 ], [ 2.4781716, 6.3673107 ], [ 2.4781698, 6.3673427 ], [ 2.4782463, 6.3673469 ], [ 2.4782593, 6.3671154 ], [ 2.4781444, 6.367109 ], [ 2.4781332, 6.3673086 ] ] ] } }
]
}
