{
"type": "FeatureCollection",
"name": "commerce",
"crs": { "type": "name", "properties": { "name": "urn:ogc:def:crs:OGC:1.3:CRS84" } },
"features": [
{ "type": "Feature", "properties": { "element": "node", "id": 2427950165, "name": "Le Secret d'Afrique", "shop": "convenience", "source": null, "phone": null, "addr:housenumber": null, "addr:street": null }, "geometry": { "type": "Point", "coordinates": [ 2.3920803, 6.3898207 ] } },
{ "type": "Feature", "properties": { "element": "node", "id": 2605998212, "name": "Dépôt Sympa", "shop": "wholesale", "source": "GPS", "phone": null, "addr:housenumber": null, "addr:street": null }, "geometry": { "type": "Point", "coordinates": [ 2.3835437, 6.3807817 ] } },
{ "type": "Feature", "properties": { "element": "node", "id": 3874525476, "name": "Pressing Le Triomphe", "shop": "dry_cleaning", "source": null, "phone": null, "addr:housenumber": null, "addr:street": null }, "geometry": { "type": "Point", "coordinates": [ 2.4048146, 6.3858137 ] } },
{ "type": "Feature", "properties": { "element": "node", "id": 3874525747, "name": "Pressing Le Clair", "shop": "dry_cleaning", "source": null, "phone": null, "addr:housenumber": null, "addr:street": null }, "geometry": { "type": "Point", "coordinates": [ 2.3865463, 6.38881 ] } },
{ "type": "Feature", "properties": { "element": "node", "id": 3874525748, "name": "Cica Noblesse Pressing", "shop": "dry_cleaning", "source": null, "phone": null, "addr:housenumber": null, "addr:street": null }, "geometry": { "type": "Point", "coordinates": [ 2.3873494, 6.389667 ] } },
{ "type": "Feature", "properties": { "element": "node", "id": 3876477558, "name": "Funai", "shop": "car", "source": null, "phone": null, "addr:housenumber": null, "addr:street": null }, "geometry": { "type": "Point", "coordinates": [ 2.392375, 6.3771401 ] } },
{ "type": "Feature", "properties": { "element": "node", "id": 5215242206, "name": "1st Design", "shop": "shoes", "source": null, "phone": null, "addr:housenumber": null, "addr:street": null }, "geometry": { "type": "Point", "coordinates": [ 2.390452, 6.390838 ] } },
{ "type": "Feature", "properties": { "element": "node", "id": 5498438522, "name": "Koff coiffure", "shop": "hairdresser", "source": null, "phone": null, "addr:housenumber": null, "addr:street": null }, "geometry": { "type": "Point", "coordinates": [ 2.3975937, 6.3905863 ] } },
{ "type": "Feature", "properties": { "element": "node", "id": 5498729921, "name": "Charme coiffure et tresse", "shop": "hairdresser", "source": null, "phone": "00229 97296186", "addr:housenumber": null, "addr:street": null }, "geometry": { "type": "Point", "coordinates": [ 2.3975462, 6.3905924 ] } },
{ "type": "Feature", "properties": { "element": "node", "id": 5871908878, "name": "Ets Sèdégbé", "shop": "beverages", "source": null, "phone": null, "addr:housenumber": null, "addr:street": null }, "geometry": { "type": "Point", "coordinates": [ 2.3951103, 6.3905991 ] } },
{ "type": "Feature", "properties": { "element": "node", "id": 6479417301, "name": "Roumihas", "shop": "hardware", "source": null, "phone": null, "addr:housenumber": null, "addr:street": null }, "geometry": { "type": "Point", "coordinates": [ 2.3841145, 6.3777174 ] } },
{ "type": "Feature", "properties": { "element": "node", "id": 7138966275, "name": "Heaven Beauty Bar", "shop": "beauty", "source": null, "phone": "66167028", "addr:housenumber": "160", "addr:street": "Rue 10.086" }, "geometry": { "type": "Point", "coordinates": [ 2.3938939, 6.3853548 ] } },
{ "type": "Feature", "properties": { "element": "node", "id": 7138983726, "name": null, "shop": "seafood", "source": null, "phone": null, "addr:housenumber": "134", "addr:street": null }, "geometry": { "type": "Point", "coordinates": [ 2.3850789, 6.3856107 ] } },
{ "type": "Feature", "properties": { "element": "node", "id": 7138999188, "name": "Ets Saint Justin", "shop": "shoes", "source": null, "phone": null, "addr:housenumber": "40", "addr:street": null }, "geometry": { "type": "Point", "coordinates": [ 2.3858539, 6.3848607 ] } },
{ "type": "Feature", "properties": { "element": "node", "id": 7139003004, "name": "Haute Couture", "shop": "sewing", "source": null, "phone": null, "addr:housenumber": "147", "addr:street": null }, "geometry": { "type": "Point", "coordinates": [ 2.3867389, 6.3844007 ] } },
{ "type": "Feature", "properties": { "element": "node", "id": 7743146583, "name": "First Lady Intitute", "shop": "beauty", "source": null, "phone": null, "addr:housenumber": null, "addr:street": null }, "geometry": { "type": "Point", "coordinates": [ 2.3924086, 6.383297 ] } },
{ "type": "Feature", "properties": { "element": "node", "id": 10157343917, "name": "La maison du BOGOLAN et des chemises afritudes", "shop": "boutique", "source": null, "phone": null, "addr:housenumber": null, "addr:street": null }, "geometry": { "type": "Point", "coordinates": [ 2.3882446, 6.3812102 ] } },
{ "type": "Feature", "properties": { "element": "node", "id": 10157343918, "name": "Chez Sena Woodin créateur", "shop": "boutique", "source": null, "phone": null, "addr:housenumber": null, "addr:street": null }, "geometry": { "type": "Point", "coordinates": [ 2.3882308, 6.3812797 ] } },
{ "type": "Feature", "properties": { "element": "node", "id": 10171760591, "name": "Garage automobile", "shop": "car_repair", "source": null, "phone": null, "addr:housenumber": null, "addr:street": null }, "geometry": { "type": "Point", "coordinates": [ 2.3854113, 6.3872789 ] } },
{ "type": "Feature", "properties": { "element": "node", "id": 10171761732, "name": "Pressing les alliances SNE", "shop": "dry_cleaning", "source": null, "phone": null, "addr:housenumber": null, "addr:street": null }, "geometry": { "type": "Point", "coordinates": [ 2.3850759, 6.3870011 ] } },
{ "type": "Feature", "properties": { "element": "node", "id": 12638664863, "name": "Victoria décors", "shop": "furniture", "source": null, "phone": null, "addr:housenumber": null, "addr:street": null }, "geometry": { "type": "Point", "coordinates": [ 2.3920182, 6.3791949 ] } }
]
}
