{
"type": "FeatureCollection",
"name": "employment_centers",
"crs": { "type": "name", "properties": { "name": "urn:ogc:def:crs:OGC:1.3:CRS84" } },
"features": [
{ "type": "Feature", "properties": { "element": "node", "id": 4208098204, "name": "Perception d'Akpakpa", "office": "government", "country": null, "diplomatic": null, "name:en": null, "name:fr": null, "target": null, "consulate": null, "addr:postcode": null, "email": null, "description": null, "opening_hours": null }, "geometry": { "type": "Point", "coordinates": [ 2.4478403, 6.3702851 ] } },
{ "type": "Feature", "properties": { "element": "node", "id": 4719251630, "name": "Consulat d'Espagne", "office": "diplomatic", "country": "ES", "diplomatic": "consulate", "name:en": "Consulate of Spain", "name:fr": "Consulat d'Espagne", "target": "BJ", "consulate": null, "addr:postcode": null, "email": null, "description": null, "opening_hours": null }, "geometry": { "type": "Point", "coordinates": [ 2.4438541, 6.3600253 ] } },
{ "type": "Feature", "properties": { "element": "node", "id": 5413943504, "name": "Consulat General Honoraire de Cote d'Ivoire", "office": "diplomatic", "country": "CI", "diplomatic": "consulate", "name:en": null, "name:fr": "Consulat General Honoraire de Cote d'Ivoire", "target": "BJ", "consulate": "honorary_consul", "addr:postcode": null, "email": null, "description": null, "opening_hours": null }, "geometry": { "type": "Point", "coordinates": [ 2.4454641, 6.3612368 ] } },
{ "type": "Feature", "properties": { "element": "node", "id": 5425988723, "name": "Direction Générale de l'Énergie", "office": "government", "country": null, "diplomatic": null, "name:en": null, "name:fr": null, "target": null, "consulate": null, "addr:postcode": "062049", "email": "dgenergiebenin@gmail.com", "description": null, "opening_hours": null }, "geometry": { "type": "Point", "coordinates": [ 2.4607331, 6.3652137 ] } },
{ "type": "Feature", "properties": { "element": "node", "id": 5573284170, "name": "IRHOB", "office": "government", "country": null, "diplomatic": null, "name:en": null, "name:fr": null, "target": null, "consulate": null, "addr:postcode": null, "email": null, "description": "Institut de Recherche Halieutique et Océanographique du Bénin", "opening_hours": null }, "geometry": { "type": "Point", "coordinates": [ 2.4395001, 6.3690565 ] } },
{ "type": "Feature", "properties": { "element": "node", "id": 5575625953, "name": "Direction Générale des Transports Terrestres", "office": "government", "country": null, "diplomatic": null, "name:en": null, "name:fr": null, "target": null, "consulate": null, "addr:postcode": null, "email": null, "description": null, "opening_hours": null }, "geometry": { "type": "Point", "coordinates": [ 2.4606098, 6.3636546 ] } },
{ "type": "Feature", "properties": { "element": "node", "id": 6032145693, "name": "LJ Group", "office": "it", "country": null, "diplomatic": null, "name:en": null, "name:fr": null, "target": null, "consulate": null, "addr:postcode": null, "email": null, "description": null, "opening_hours": "Mo-Fr 08:00-17:00" }, "geometry": { "type": "Point", "coordinates": [ 2.4450469, 6.3652738 ] } },
{ "type": "Feature", "properties": { "element": "node", "id": 6054859885, "name": "GMB", "office": "company", "country": null, "diplomatic": null, "name:en": null, "name:fr": null, "target": null, "consulate": null, "addr:postcode": null, "email": null, "description": null, "opening_hours": null }, "geometry": { "type": "Point", "coordinates": [ 2.453006, 6.362582 ] } },
{ "type": "Feature", "properties": { "element": "node", "id": 9837034544, "name": "Ministère des Infrastructures et des Transports", "office": "government", "country": null, "diplomatic": null, "name:en": null, "name:fr": null, "target": null, "consulate": null, "addr:postcode": null, "email": null, "description": null, "opening_hours": null }, "geometry": { "type": "Point", "coordinates": [ 2.4578607, 6.362942 ] } },
{ "type": "Feature", "properties": { "element": "node", "id": 9840887709, "name": "Label coton bénin sa", "office": "company", "country": null, "diplomatic": null, "name:en": null, "name:fr": null, "target": null, "consulate": null, "addr:postcode": null, "email": null, "description": null, "opening_hours": "Mo-Fr 09:00-17:00" }, "geometry": { "type": "Point", "coordinates": [ 2.4492525, 6.3631578 ] } }
]
}
